[
  {
    "name": "Сбер Банк",
    "coordinates": { "lat": 53.909956, "lng": 27.576363 },
    "address": "просп. Независимости, 39",
    "currencies": ["USD", "EUR", "CAD"],
    "workingHours": {
      "mon-fri": "09:00–18:00",
      "sat": "10:00–14:00",
      "sun": "выходной"
    },
    "phone": "+375 (17) 300-11-22",
    "services": ["обмен валют", "ипотека", "депозиты", "переводы"]
  },
  {
    "name": "Беларусбанк",
    "coordinates": { "lat": 53.911592, "lng": 27.579248 },
    "address": "просп. Независимости, 44",
    "currencies": ["BTC", "USD", "EUR", "AUD"],
    "workingHours": {
      "mon-fri": "08:30–19:00",
      "sat": "09:00–15:00",
      "sun": "выходной"
    },
    "phone": "+375 (17) 222-33-44",
    "services": ["обмен валют", "интернет-банкинг", "кредиты", "переводы"]
  },
  {
    "name": "ВТБ",
    "coordinates": { "lat": 53.915956, "lng": 27.588013 },
    "address": "ул. Гикало, 3",
    "currencies": ["JPY", "USD", "ARS"],
    "workingHours": {
      "mon-fri": "09:00–17:00",
      "sat": "выходной",
      "sun": "выходной"
    },
    "phone": "+375 (17) 555-66-77",
    "services": ["кредиты", "корпоративное обслуживание", "переводы"]
  },
  {
    "name": "Технобанк",
    "coordinates": { "lat": 53.918329, "lng": 27.585864 },
    "address": "ул. Якуба Коласа, 4",
    "currencies": ["BWR", "JPY", "ARS", "CAD"],
    "workingHours": {
      "mon-fri": "10:00–19:00",
      "sat": "10:00–14:00",
      "sun": "выходной"
    },
    "phone": "+375 (17) 400-55-66",
    "services": ["обмен редких валют", "инвестиции", "финансовые консультации"]
  },
  {
    "name": "Банк РРБ",
    "coordinates": { "lat": 53.907866, "lng": 27.590725 },
    "address": "Краснозвёздная ул., 18",
    "currencies": ["ASD", "ARS", "EUR", "GBP"],
    "workingHours": {
      "mon-fri": "09:00–17:30",
      "sat": "выходной",
      "sun": "выходной"
    },
    "phone": "+375 (17) 777-88-99",
    "services": ["обслуживание юр. лиц", "редкие валюты", "депозиты"]
  },
  {
    "name": "Приорбанк",
    "coordinates": { "lat": 53.901644, "lng": 27.547659 },
    "address": "ул. Немига, 30, корп. 1",
    "currencies": ["CNY", "GBP", "AUD"],
    "workingHours": {
      "mon-fri": "08:00–18:00",
      "sat": "09:00–13:00",
      "sun": "выходной"
    },
    "phone": "+375 (17) 999-00-11",
    "services": ["обмен валют", "переводы", "зарплатные проекты", "интернет-банкинг"]
  }
]
